[{"Id":1,"Name":"Demoinstitutionen","OpeningHours":[{"Name":"Mandag","Hours":"Kl. 06:30:00 - 17:00:00"},{"Name":"Tirsdag","Hours":"Kl. 06:30:00 - 16:00:00"},{"Name":"Onsdag","Hours":"Kl. 00:00:00 - 00:00:00"},{"Name":"Torsdag","Hours":"Kl. 00:00:00 - 00:00:00"},{"Name":"Fredag","Hours":"Kl. 00:00:00 - 00:00:00"},{"Name":"Lørdag","Hours":"Kl.  - "},{"Name":"Søndag","Hours":"Kl.  - "}],"Address":{"Street":"Østerågade","StreetNumber":"27","Town":"Aalborg","ZipCode":"9000"},"Phone1":null,"Phone2":null,"Documents":null,"Messages":[],"Employees":[{"Name":"Malthe Stougaard","Description":"Pædagog","ProfileImageUrl":"https://kidslink.blob.core.windows.net/demo01/EmpImg_3?sv=2014-02-14&sr=b&sig=WPw%2FaBMf8dthZhWMJ3MZTqf1Gutq2bJIpAypdenw8lA%3D&se=2015-05-28T08%3A24%3A25Z&sp=r"},{"Name":"Adam West","Description":"Senior medarbejder","ProfileImageUrl":"https://kidslink.blob.core.windows.net/demo01/EmpImg_1042?sv=2014-02-14&sr=b&sig=rQpDphYfNoE%2BztRI%2BredV4ZqqJV38%2BYFMZgSuYIpSaw%3D&se=2015-05-28T08%3A24%3A25Z&sp=r"},{"Name":"Frank Jørgensen","Description":"Køkken","ProfileImageUrl":""},{"Name":"Susanne Laursen","Description":"Pædagogisk leder","ProfileImageUrl":""},{"Name":"Karen Svingarm","Description":"Vikar","ProfileImageUrl":"https://kidslink.blob.core.windows.net/demo01/EmpImg_1043?sv=2014-02-14&sr=b&sig=n4FlZ2D6VgO8%2BwR7JT4bPPnUMCjHmUchp%2FE75oHpdlI%3D&se=2015-05-28T08%3A24%3A25Z&sp=r"}]},{"Id":4,"Name":"KidsLink Demo","OpeningHours":[{"Name":"Mandag","Hours":"Kl. 06:30:00 - 17:00:00"},{"Name":"Tirsdag","Hours":"Kl. 07:00:00 - 17:00:00"},{"Name":"Onsdag","Hours":"Kl. 07:00:00 - 17:00:00"},{"Name":"Torsdag","Hours":"Kl. 07:00:00 - 17:00:00"},{"Name":"Fredag","Hours":"Kl. 07:00:00 - 16:00:00"},{"Name":"Lørdag","Hours":"Kl.  - "},{"Name":"Søndag","Hours":"Kl.  - "}],"Address":{"Street":"Nestorvej","StreetNumber":"9","Town":"Aalborg SV","ZipCode":"9200"},"Phone1":"004561319160","Phone2":null,"Documents":null,"Messages":[],"Employees":[{"Name":"Anne Nielsen","Description":"Pædagogisk leder","ProfileImageUrl":"https://kidslink.blob.core.windows.net/demo01/EmpImg_1031?sv=2014-02-14&sr=b&sig=FF46JKzuXj8e55QSHaAoX8L3Gy2lCT41BQIKyXnsMRQ%3D&se=2015-05-28T08%3A24%3A25Z&sp=r"},{"Name":"Søren Petersen","Description":"Pædagog","ProfileImageUrl":"https://kidslink.blob.core.windows.net/demo01/EmpImg_1032?sv=2014-02-14&sr=b&sig=UxETq%2FXa27uG%2FadTnM6HLmoOZcgjx1rkjbtiqmMaYVo%3D&se=2015-05-28T08%3A24%3A25Z&sp=r"},{"Name":"Josefine Nansen","Description":"Pædagogmedhjælper","ProfileImageUrl":"https://kidslink.blob.core.windows.net/demo01/EmpImg_1033?sv=2014-02-14&sr=b&sig=woZTxhWXs2QV8Mp1ERfrvz0rhgMHQCaqhNtqL196CX0%3D&se=2015-05-28T08%3A24%3A25Z&sp=r"},{"Name":"Adam West","Description":"Senior medarbejder","ProfileImageUrl":"https://kidslink.blob.core.windows.net/demo01/EmpImg_1044?sv=2014-02-14&sr=b&sig=GdWq9OZ4YgyIGdaSndOWALkFrkhJ3nLJgKzoHWCgE0o%3D&se=2015-05-28T08%3A24%3A25Z&sp=r"},{"Name":"Anders Johansen","Description":"Pædagog","ProfileImageUrl":"https://kidslink.blob.core.windows.net/demo01/EmpImg_1034?sv=2014-02-14&sr=b&sig=DDnKIJNWIC4CNG%2BgSANLEKPVi7vl%2B4toSzWQZEW6IjA%3D&se=2015-05-28T08%3A24%3A25Z&sp=r"},{"Name":"Helle Petersen","Description":"Pædagog","ProfileImageUrl":"https://kidslink.blob.core.windows.net/demo01/EmpImg_1035?sv=2014-02-14&sr=b&sig=FLn2YuRKg4HNhq1xU5zq4wDZ4D4THkbAuMeSzgCF4bY%3D&se=2015-05-28T08%3A24%3A25Z&sp=r"},{"Name":"Gurli Jensen","Description":"Pædagog","ProfileImageUrl":"https://kidslink.blob.core.windows.net/demo01/EmpImg_4?sv=2014-02-14&sr=b&sig=2Qjdo%2FzlGKOvuK1I1Px48jkO1tt7KWHGfV2HJfJ%2FcHw%3D&se=2015-05-28T08%3A24%3A25Z&sp=r"},{"Name":"Lisbeth Pedersen","Description":"Pædagog","ProfileImageUrl":"https://kidslink.blob.core.windows.net/demo01/EmpImg_1025?sv=2014-02-14&sr=b&sig=PEJyZoiPKJpQ7LUCh9ZFzbQhCi8LJYQI8TnLdK4s2VQ%3D&se=2015-05-28T08%3A24%3A25Z&sp=r"},{"Name":"Fie Bendtsen","Description":"Studerende","ProfileImageUrl":"https://kidslink.blob.core.windows.net/demo01/EmpImg_1026?sv=2014-02-14&sr=b&sig=ZNX6Ys6f9jAjeb2Hdp35Eiw%2FMz2W7gz%2BLVSEAjZzrJ8%3D&se=2015-05-28T08%3A24%3A25Z&sp=r"}]}]